City_ID,City,Country,Date,Lat,Lng,Max Temp,Humidity,Cloudiness,Wind Speed,Weather Description
0,Kondinskoye,RU,2021-12-20 01:44:58,59.6481,67.41,10.4,94,100,13.8,light snow
1,Esperance,AU,2021-12-20 01:44:59,-33.8667,121.9,75.04,48,66,5.23,broken clouds
2,Swan Hill,AU,2021-12-20 01:45:00,-35.3378,143.5544,76.87,24,0,8.84,clear sky
3,Northam,GB,2021-12-20 01:45:00,51.0333,-4.2167,44.02,98,55,15.57,broken clouds
4,Vaini,TO,2021-12-20 01:45:01,-21.2,-175.2,87.96,79,40,10.36,scattered clouds
5,Tasiilaq,GL,2021-12-20 01:45:02,65.6145,-37.6368,30.36,64,94,9.44,overcast clouds
6,Isangel,VU,2021-12-20 01:45:02,-19.55,169.2667,87.91,79,75,9.22,broken clouds
7,Ribeira Grande,PT,2021-12-20 01:45:03,38.5167,-28.7,60.03,66,100,37.18,overcast clouds
8,Clyde River,CA,2021-12-20 01:45:03,70.4692,-68.5914,8.83,92,100,9.22,mist
9,Lebu,CL,2021-12-20 01:45:04,-37.6167,-73.65,56.89,94,25,16.28,scattered clouds
10,Hobart,AU,2021-12-20 01:44:49,-42.8794,147.3294,67.86,45,75,18.41,broken clouds
11,Cayenne,GF,2021-12-20 01:45:04,4.9333,-52.3333,81.09,84,0,1.99,clear sky
12,Silver City,US,2021-12-20 01:45:04,32.7701,-108.2803,39.69,53,1,3.0,clear sky
13,Lata,PT,2021-12-20 01:45:05,40.1629,-8.3327,59.07,65,100,9.4,overcast clouds
14,Lulea,SE,2021-12-20 01:45:05,65.5842,22.1547,19.47,93,90,4.61,light snow
15,Saint George,US,2021-12-20 01:41:01,37.1041,-113.5841,43.95,49,1,1.99,clear sky
16,Krasnoselkup,RU,2021-12-20 01:45:06,65.7,82.4667,-36.0,98,22,6.13,few clouds
17,Wang Saphung,TH,2021-12-20 01:45:06,17.301,101.7685,67.08,81,0,2.3,clear sky
18,Punta Arenas,CL,2021-12-20 01:42:09,-53.15,-70.9167,46.51,66,75,19.57,light rain
19,Barrow,US,2021-12-20 01:45:06,71.2906,-156.7887,6.82,78,90,36.82,snow
20,Port Augusta,AU,2021-12-20 01:45:07,-32.5,137.7667,78.71,35,0,12.68,clear sky
21,Bengkulu,ID,2021-12-20 01:45:07,-3.8004,102.2655,78.66,79,100,6.49,overcast clouds
22,Progreso,MX,2021-12-20 01:45:08,21.2833,-89.6667,76.1,79,100,11.05,overcast clouds
23,Sibolga,ID,2021-12-20 01:45:08,1.7427,98.7792,79.38,78,100,1.39,overcast clouds
24,Magadan,RU,2021-12-20 01:45:09,59.5667,150.8,-0.17,75,100,12.28,overcast clouds
25,Provideniya,RU,2021-12-20 01:45:09,64.3833,-173.3,32.36,100,90,20.13,light rain and snow
26,Tura,IN,2021-12-20 01:45:09,25.5198,90.2201,58.42,59,0,2.26,clear sky
27,Matranovak,HU,2021-12-20 01:45:10,48.0381,19.9826,38.23,88,6,6.53,clear sky
28,Butaritari,KI,2021-12-20 01:45:10,3.0707,172.7902,82.29,74,99,16.22,overcast clouds
29,Severo-Kurilsk,RU,2021-12-20 01:45:10,50.6789,156.125,28.24,80,87,16.46,light snow
30,Bredasdorp,ZA,2021-12-20 01:45:11,-34.5322,20.0403,66.27,82,100,12.66,overcast clouds
31,Busselton,AU,2021-12-20 01:45:11,-33.65,115.3333,75.99,35,0,2.37,clear sky
32,Tuktoyaktuk,CA,2021-12-20 01:45:11,69.4541,-133.0374,-14.8,70,90,18.41,light snow
33,Georgetown,MY,2021-12-20 01:42:09,5.4112,100.3354,80.53,78,20,3.0,few clouds
34,Kaitangata,NZ,2021-12-20 01:45:12,-46.2817,169.8464,72.91,44,100,10.2,overcast clouds
35,Bluff,NZ,2021-12-20 01:45:12,-46.6,168.3333,60.46,86,99,30.96,light rain
36,Hilo,US,2021-12-20 01:45:12,19.7297,-155.09,74.93,40,90,3.44,moderate rain
37,Bradford,GB,2021-12-20 01:45:13,53.7939,-1.7521,42.04,81,100,5.35,overcast clouds
38,Ayr,GB,2021-12-20 01:45:13,55.4627,-4.6339,43.11,92,17,7.58,few clouds
39,Hasaki,JP,2021-12-20 01:45:13,35.7333,140.8333,46.8,46,0,9.37,clear sky
40,Pacific Grove,US,2021-12-20 01:45:12,36.6177,-121.9166,53.28,79,10,1.99,clear sky
41,Guanhaes,BR,2021-12-20 01:45:14,-18.775,-42.9325,65.43,98,100,4.65,overcast clouds
42,Solnechnyy,RU,2021-12-20 01:45:14,50.7214,136.6319,-1.88,80,85,3.78,overcast clouds
43,Husavik,IS,2021-12-20 01:45:15,66.0449,-17.3389,42.71,86,100,8.23,overcast clouds
44,Lincoln,US,2021-12-20 01:45:15,40.8,-96.667,35.35,51,0,3.0,clear sky
45,Khatanga,RU,2021-12-20 01:45:15,71.9667,102.5,-11.76,97,100,11.86,overcast clouds
46,Rikitea,PF,2021-12-20 01:45:16,-23.1203,-134.9692,74.84,83,100,14.88,light rain
47,Gawler,AU,2021-12-20 01:45:16,-34.6,138.7333,74.61,52,6,10.56,clear sky
48,Ouallam,NE,2021-12-20 01:45:16,14.3188,2.0866,64.09,17,1,10.98,clear sky
49,Taltal,CL,2021-12-20 01:45:17,-25.4,-70.4833,64.71,83,100,1.43,overcast clouds
50,Nikolskoye,RU,2021-12-20 01:45:17,59.7035,30.7861,21.09,91,100,11.56,light snow
51,Buraydah,SA,2021-12-20 01:45:17,26.326,43.975,59.45,56,100,3.89,overcast clouds
52,Port Elizabeth,ZA,2021-12-20 01:45:18,-33.918,25.5701,66.09,88,0,9.22,clear sky
53,Albany,US,2021-12-20 01:44:34,42.6001,-73.9662,25.27,74,12,14.0,few clouds
54,Mataura,NZ,2021-12-20 01:45:18,-46.1927,168.8643,69.85,57,99,12.17,overcast clouds
55,Arraial Do Cabo,BR,2021-12-20 01:45:19,-22.9661,-42.0278,72.7,79,55,10.76,broken clouds
56,Halvad,IN,2021-12-20 01:45:19,23.0167,71.1833,57.47,30,3,8.14,clear sky
57,Dakar,SN,2021-12-20 01:45:19,14.6937,-17.4441,79.68,69,100,13.8,overcast clouds
58,Jacqueville,CI,2021-12-20 01:45:20,5.2052,-4.4146,82.31,81,33,8.34,light rain
59,Boquira,BR,2021-12-20 01:45:20,-12.8231,-42.7306,69.1,93,100,2.21,overcast clouds
60,Cape Town,ZA,2021-12-20 01:45:15,-33.9258,18.4232,71.11,71,0,1.01,clear sky
61,Mildura,AU,2021-12-20 01:45:20,-34.2,142.15,73.08,26,3,9.22,clear sky
62,Pyay,MM,2021-12-20 01:45:21,18.8167,95.2167,71.98,72,0,3.85,clear sky
63,Thompson,CA,2021-12-20 01:45:21,55.7435,-97.8558,-7.44,77,75,6.91,light snow
64,Faanui,PF,2021-12-20 01:45:22,-16.4833,-151.75,79.99,76,28,9.15,scattered clouds
65,Hermanus,ZA,2021-12-20 01:45:22,-34.4187,19.2345,67.89,83,100,16.13,overcast clouds
66,Ponta Do Sol,PT,2021-12-20 01:40:28,32.6667,-17.1,69.01,93,100,21.45,overcast clouds
67,Moose Factory,CA,2021-12-20 01:45:23,51.2585,-80.6094,1.4,78,90,9.22,overcast clouds
68,Jamestown,US,2021-12-20 01:45:23,42.097,-79.2353,26.29,81,55,1.01,broken clouds
69,Luderitz,NA,2021-12-20 01:45:24,-26.6481,15.1594,58.96,83,3,3.44,clear sky
70,Rudnichnyy,RU,2021-12-20 01:45:25,59.617,52.4703,5.52,96,99,6.35,overcast clouds
71,Kodiak,US,2021-12-20 01:45:25,57.79,-152.4072,32.59,81,25,4.74,scattered clouds
72,Guerrero Negro,MX,2021-12-20 01:45:25,27.9769,-114.0611,59.49,53,0,9.37,clear sky
73,Avarua,CK,2021-12-20 01:45:26,-21.2078,-159.775,80.65,69,75,8.05,broken clouds
74,Yarada,IN,2021-12-20 01:45:26,17.65,83.2667,64.72,100,20,2.3,mist
75,Puerto Ayora,EC,2021-12-20 01:45:26,-0.7393,-90.3518,69.93,91,100,7.02,overcast clouds
76,Bucerias,MX,2021-12-20 01:45:27,20.75,-105.3333,71.24,82,10,3.96,clear sky
77,Lagoa,PT,2021-12-20 01:44:18,39.05,-27.9833,57.02,84,100,34.49,overcast clouds
78,Lumeje,AO,2021-12-20 01:45:27,-11.55,20.7833,65.34,97,100,3.69,moderate rain
79,Mount Isa,AU,2021-12-20 01:45:28,-20.7333,139.5,91.17,38,0,5.75,clear sky
80,Tiksi,RU,2021-12-20 01:45:28,71.6872,128.8694,-14.48,100,100,4.43,overcast clouds
81,Ketchikan,US,2021-12-20 01:45:28,55.3422,-131.6461,27.07,80,1,8.05,clear sky
82,Kysyl-Syr,RU,2021-12-20 01:45:29,63.8986,122.7617,-28.86,97,100,5.88,overcast clouds
83,Hualmay,PE,2021-12-20 01:45:29,-11.0964,-77.6139,67.41,84,0,7.11,clear sky
84,Carnarvon,AU,2021-12-20 01:45:06,-24.8667,113.6333,82.47,51,0,14.97,clear sky
85,Saint-Philippe,RE,2021-12-20 01:45:29,-21.3585,55.7679,77.49,85,30,7.85,light rain
86,Yatou,CN,2021-12-20 01:45:30,37.15,122.3833,44.69,53,55,8.81,broken clouds
87,Talnakh,RU,2021-12-20 01:41:40,69.4865,88.3972,-33.61,95,74,2.75,broken clouds
88,Ushuaia,AR,2021-12-20 01:45:30,-54.8,-68.3,40.66,70,40,17.27,scattered clouds
89,Havoysund,NO,2021-12-20 01:45:31,70.9963,24.6622,22.08,60,100,10.2,overcast clouds
90,Tarboro,US,2021-12-20 01:45:31,35.8968,-77.5358,41.38,93,90,5.75,overcast clouds
91,Kapaa,US,2021-12-20 01:41:57,22.0752,-159.319,80.58,75,40,5.01,light rain
92,Vitry-Le-Francois,FR,2021-12-20 01:45:32,48.7333,4.5833,40.91,95,62,7.49,broken clouds
93,Port Alfred,ZA,2021-12-20 01:45:43,-33.5906,26.891,66.06,91,68,10.18,broken clouds
94,Parker,US,2021-12-20 01:45:43,32.7668,-97.8003,45.72,44,99,3.38,overcast clouds
95,Chuy,UY,2021-12-20 01:45:44,-33.6971,-53.4616,66.45,86,0,10.51,clear sky
96,Saldanha,ZA,2021-12-20 01:45:24,-33.0117,17.9442,60.85,81,91,7.2,overcast clouds
97,Kardailovo,RU,2021-12-20 01:45:45,51.5386,53.9042,25.68,88,73,16.53,broken clouds
98,Yellowknife,CA,2021-12-20 01:40:47,62.456,-114.3525,-18.58,94,40,6.91,light snow
99,Sorland,NO,2021-12-20 01:45:45,67.667,12.6934,39.85,55,96,18.05,overcast clouds
100,Vila Velha,BR,2021-12-20 01:45:46,-20.3297,-40.2925,71.55,92,90,4.0,mist
101,Shinyanga,TZ,2021-12-20 01:45:46,-3.6667,33.4333,68.13,88,95,2.51,light rain
102,Kenora,CA,2021-12-20 01:45:22,49.8167,-94.4337,24.78,86,90,12.66,light shower snow
103,Socorro,US,2021-12-20 01:45:47,31.6546,-106.3033,51.01,41,1,0.0,clear sky
104,Santa Marta,CO,2021-12-20 01:45:47,11.2408,-74.199,84.25,58,75,9.22,broken clouds
105,Gayny,RU,2021-12-20 01:45:47,60.3071,54.3241,2.34,98,98,5.1,overcast clouds
106,Nanortalik,GL,2021-12-20 01:45:48,60.1432,-45.2371,39.13,72,100,26.49,overcast clouds
107,Vallenar,CL,2021-12-20 01:42:57,-28.5708,-70.7581,67.35,65,100,4.36,overcast clouds
108,Luwuk,ID,2021-12-20 01:45:48,-0.9516,122.7875,87.26,66,98,1.41,overcast clouds
109,Kavaratti,IN,2021-12-20 01:41:44,10.5669,72.642,80.91,72,4,7.7,clear sky
110,Namibe,AO,2021-12-20 01:41:41,-15.1961,12.1522,69.03,70,41,7.81,scattered clouds
111,Alofi,NU,2021-12-20 01:45:49,-19.0595,-169.9187,84.09,61,45,18.41,scattered clouds
112,Sovetskiy,RU,2021-12-20 01:45:50,61.3614,63.5842,2.37,96,100,8.46,light snow
113,Goderich,CA,2021-12-20 01:43:07,43.7501,-81.7165,26.91,74,88,6.91,overcast clouds
114,Bethel,US,2021-12-20 01:40:51,41.3712,-73.414,30.18,68,1,1.01,clear sky
115,Saskylakh,RU,2021-12-20 01:45:50,71.9167,114.0833,-8.55,98,100,10.02,overcast clouds
116,Shwebo,MM,2021-12-20 01:45:51,22.5667,95.7,66.94,71,2,5.35,clear sky
117,Berdigestyakh,RU,2021-12-20 01:45:51,62.0989,126.6992,-30.15,96,100,6.13,overcast clouds
118,Denpasar,ID,2021-12-20 01:45:51,-8.65,115.2167,83.86,79,20,2.3,few clouds
119,Norman Wells,CA,2021-12-20 01:45:52,65.282,-126.8329,1.44,78,90,4.61,light snow
120,Mwinilunga,ZM,2021-12-20 01:45:52,-11.7358,24.4293,61.83,97,100,2.48,overcast clouds
121,Dolinsk,RU,2021-12-20 01:45:52,47.35,142.8,12.06,70,99,4.5,overcast clouds
122,College,US,2021-12-20 01:45:53,64.8569,-147.8028,20.86,89,90,4.61,snow
123,Beyneu,KZ,2021-12-20 01:45:53,45.3167,55.2,31.77,91,38,1.28,scattered clouds
124,Lasa,IT,2021-12-20 01:45:53,46.6166,10.7002,38.28,54,7,7.0,clear sky
125,Ancud,CL,2021-12-20 01:45:54,-41.8697,-73.8203,62.13,93,17,2.21,few clouds
126,San Quintin,MX,2021-12-20 01:45:54,30.4833,-115.95,56.95,62,0,3.69,clear sky
127,Dikson,RU,2021-12-20 01:45:55,73.5069,80.5464,-29.7,99,88,3.44,overcast clouds
128,Nome,US,2021-12-20 01:45:55,64.5011,-165.4064,34.16,93,90,21.85,light snow
129,Gazanjyk,TM,2021-12-20 01:42:52,39.2446,55.5154,49.08,54,0,4.05,clear sky
130,Aklavik,CA,2021-12-20 01:45:55,68.2191,-135.0107,-1.37,100,99,7.52,overcast clouds
131,Klaksvik,FO,2021-12-20 01:45:56,62.2266,-6.589,40.12,82,100,11.18,overcast clouds
132,Saint Augustine,US,2021-12-20 01:45:52,29.8947,-81.3145,72.01,97,90,8.05,overcast clouds
133,East London,ZA,2021-12-20 01:45:57,-33.0153,27.9116,66.76,85,39,12.41,scattered clouds
134,Port Moresby,PG,2021-12-20 01:45:57,-9.4431,147.1797,87.22,74,40,11.5,scattered clouds
135,Otukpo,NG,2021-12-20 01:45:57,7.1913,8.1329,72.55,32,0,3.09,clear sky
136,Pochutla,MX,2021-12-20 01:44:13,15.7432,-96.4661,80.42,84,100,3.85,overcast clouds
137,Mount Gambier,AU,2021-12-20 01:45:58,-37.8333,140.7667,69.71,52,40,24.16,scattered clouds
138,Sao Jose Da Coroa Grande,BR,2021-12-20 01:45:58,-8.8978,-35.1478,79.03,79,85,9.1,overcast clouds
139,Westport,US,2021-12-20 01:45:59,41.1415,-73.3579,32.81,67,1,3.0,clear sky
140,Ilulissat,GL,2021-12-20 01:45:59,69.2167,-51.1,39.22,45,100,25.32,overcast clouds
141,Cherskiy,RU,2021-12-20 01:45:59,68.75,161.3,-23.53,97,100,21.47,light snow
142,Koslan,RU,2021-12-20 01:46:00,63.4564,48.8989,2.16,94,100,7.87,overcast clouds
143,Mahebourg,MU,2021-12-20 01:46:00,-20.4081,57.7,76.24,83,20,5.75,few clouds
144,Windhoek,NA,2021-12-20 01:41:59,-22.5594,17.0832,66.4,34,55,4.61,broken clouds
145,Vila Franca Do Campo,PT,2021-12-20 01:46:01,37.7167,-25.4333,59.41,85,99,10.74,overcast clouds
146,Seoul,KR,2021-12-20 01:43:02,37.5683,126.9778,49.44,75,0,3.44,clear sky
147,Maralal,KE,2021-12-20 01:46:01,1.0968,36.698,58.05,86,98,4.32,overcast clouds
148,Hithadhoo,MV,2021-12-20 01:46:02,-0.6,73.0833,82.53,74,100,7.83,overcast clouds
149,Shihezi,CN,2021-12-20 01:46:02,44.3,86.0333,14.85,85,95,1.59,overcast clouds
150,Saint-Pierre,RE,2021-12-20 01:46:03,-21.3393,55.4781,77.58,80,90,6.91,light rain
151,Kavieng,PG,2021-12-20 01:46:03,-2.5744,150.7967,82.71,75,98,2.48,moderate rain
152,Clarence Town,AU,2021-12-20 01:46:03,-32.5833,151.7833,92.28,36,84,3.8,broken clouds
153,Triolet,MU,2021-12-20 01:46:04,-20.0547,57.5453,76.26,82,74,5.17,broken clouds
154,Alice Springs,AU,2021-12-20 01:42:42,-23.7,133.8833,85.55,23,0,14.97,clear sky
155,Mayo,US,2021-12-20 01:46:04,38.8876,-76.5119,39.54,60,1,5.01,clear sky
156,Lusaka,ZM,2021-12-20 01:46:05,-15.4067,28.2871,63.54,96,100,8.25,overcast clouds
157,Mapimi,MX,2021-12-20 01:46:05,25.8167,-103.85,52.57,69,13,5.73,few clouds
158,Sola,VU,2021-12-20 01:46:05,-13.8833,167.55,82.0,73,85,6.13,overcast clouds
159,Chandler,US,2021-12-20 01:41:49,33.3062,-111.8412,63.18,37,1,0.0,clear sky
160,Landerneau,FR,2021-12-20 01:46:06,48.4525,-4.2525,45.36,96,75,8.05,broken clouds
161,Castro,BR,2021-12-20 01:46:06,-24.7911,-50.0119,56.14,87,0,7.72,clear sky
162,Chulman,RU,2021-12-20 01:46:07,56.8479,124.9104,-28.3,97,100,7.34,overcast clouds
163,Iqaluit,CA,2021-12-20 01:42:09,63.7506,-68.5145,-2.31,70,75,8.99,broken clouds
164,Tawau,MY,2021-12-20 01:46:07,4.2498,117.8871,84.33,74,100,5.99,overcast clouds
165,Constitucion,CL,2021-12-20 01:42:36,-35.3333,-72.4167,57.72,82,50,12.08,scattered clouds
166,Sitka,US,2021-12-20 01:46:07,57.0531,-135.33,30.09,69,1,5.75,clear sky
167,Lebanon,US,2021-12-20 01:45:09,36.2081,-86.2911,38.59,82,75,4.61,broken clouds
168,Buarcos,PT,2021-12-20 01:46:08,40.166,-8.8768,60.82,66,100,19.15,overcast clouds
169,Amapa,BR,2021-12-20 01:46:08,1.0,-52.0,73.27,94,100,2.64,overcast clouds
170,Promyshlennaya,RU,2021-12-20 01:46:09,54.9159,85.6385,14.95,96,100,5.55,light snow
171,Kamaishi,JP,2021-12-20 01:46:09,39.2667,141.8833,29.35,51,31,12.8,scattered clouds
172,Vostok,RU,2021-12-20 01:46:09,46.4856,135.8833,7.16,87,99,3.31,overcast clouds
173,Poum,NC,2021-12-20 01:46:10,-20.2333,164.0167,80.4,72,2,0.92,clear sky
174,Tecoanapa,MX,2021-12-20 01:46:10,16.5167,-98.75,79.43,77,89,7.14,overcast clouds
175,Codrington,AU,2021-12-20 01:46:10,-38.2667,141.9667,73.6,43,40,22.06,scattered clouds
176,Bajil,YE,2021-12-20 01:46:11,15.0584,43.2851,74.23,75,46,2.68,scattered clouds
177,Tuatapere,NZ,2021-12-20 01:46:11,-46.1333,167.6833,62.01,91,99,13.0,moderate rain
178,Aku,NG,2021-12-20 01:46:11,6.7081,7.3167,73.65,31,0,4.32,clear sky
179,Pokaran,IN,2021-12-20 01:46:12,26.9167,71.9167,54.66,12,0,4.88,clear sky
180,Huarmey,PE,2021-12-20 01:46:12,-10.0681,-78.1522,67.77,84,56,6.35,broken clouds
181,Hambantota,LK,2021-12-20 01:46:13,6.1241,81.1185,73.74,100,49,3.44,scattered clouds
182,Atuona,PF,2021-12-20 01:46:13,-9.8,-139.0333,78.17,72,6,12.3,clear sky
183,Millinocket,US,2021-12-20 01:46:13,45.6573,-68.7098,21.42,73,90,8.05,overcast clouds
184,Matara,LK,2021-12-20 01:42:50,5.9485,80.5353,76.19,88,30,4.16,scattered clouds
185,Namatanai,PG,2021-12-20 01:46:14,-3.6667,152.4333,79.3,85,100,4.25,light rain
186,Khandyga,RU,2021-12-20 01:46:14,62.6667,135.6,-34.01,92,100,2.44,overcast clouds
187,Tevaitoa,PF,2021-12-20 01:46:15,-16.7833,-151.5,79.86,76,21,10.85,light rain
188,Misratah,LY,2021-12-20 01:46:15,32.3754,15.0925,54.9,65,66,13.82,broken clouds
189,Marsh Harbour,BS,2021-12-20 01:46:16,26.5412,-77.0636,77.07,82,0,11.88,clear sky
190,Lavrentiya,RU,2021-12-20 01:46:16,65.5833,-171.0,33.82,98,100,18.39,light rain
191,Binzhou,CN,2021-12-20 01:46:16,37.3667,118.0167,42.67,44,1,10.36,clear sky
192,Ballina,AU,2021-12-20 01:46:17,-28.8667,153.5667,89.78,57,89,5.75,overcast clouds
193,Sevierville,US,2021-12-20 01:45:13,35.8681,-83.5618,43.11,76,90,9.22,overcast clouds
194,San Bartolome De Tirajana,ES,2021-12-20 01:46:17,27.9248,-15.5733,55.31,85,20,9.22,few clouds
195,Nemuro,JP,2021-12-20 01:46:17,43.3236,145.575,27.03,46,11,8.97,few clouds
196,Astoria,US,2021-12-20 01:45:02,46.1879,-123.8313,41.86,93,1,7.0,clear sky
197,Qaanaaq,GL,2021-12-20 01:46:18,77.484,-69.3632,20.64,71,100,9.82,overcast clouds
198,Troitskoye,RU,2021-12-20 01:46:18,52.9821,84.6757,30.56,98,100,11.25,snow
199,Naze,JP,2021-12-20 01:46:19,28.3667,129.4833,61.72,48,41,3.44,scattered clouds
200,Eirunepe,BR,2021-12-20 01:46:10,-6.6603,-69.8736,75.36,98,100,2.68,overcast clouds
201,Biak,ID,2021-12-20 01:46:19,-0.9131,122.8766,84.11,67,94,0.76,overcast clouds
202,Bilibino,RU,2021-12-20 01:46:19,68.0546,166.4372,-25.98,100,100,7.09,light snow
203,Tshikapa,CD,2021-12-20 01:46:20,-6.4167,20.8,70.63,97,100,0.81,overcast clouds
204,Pilar Do Sul,BR,2021-12-20 01:46:20,-23.8131,-47.7164,59.13,92,23,7.96,few clouds
205,Salalah,OM,2021-12-20 01:46:20,17.0151,54.0924,71.69,73,0,6.91,clear sky
206,Sunderland,GB,2021-12-20 01:41:49,54.9047,-1.3822,43.0,96,100,5.82,overcast clouds
207,Bara,NG,2021-12-20 01:46:21,10.3744,10.7288,62.37,29,2,8.21,clear sky
208,Pevek,RU,2021-12-20 01:46:21,69.7008,170.3133,-12.23,96,100,21.83,light snow
209,Salo,IT,2021-12-20 01:46:21,45.6086,10.531,43.99,50,1,6.55,clear sky
210,Richmond,US,2021-12-20 01:43:16,37.5538,-77.4603,38.66,68,40,1.99,scattered clouds
211,Airai,TL,2021-12-20 01:46:22,-8.9266,125.4092,72.19,71,100,0.58,overcast clouds
212,Camana,PE,2021-12-20 01:46:22,-16.6228,-72.7111,67.73,87,93,6.2,overcast clouds
213,Berlevag,NO,2021-12-20 01:46:23,70.8578,29.0864,28.89,62,100,19.98,light snow
214,New Norfolk,AU,2021-12-20 01:46:23,-42.7826,147.0587,67.5,79,100,16.13,overcast clouds
215,Victoria,HK,2021-12-20 01:45:57,22.2855,114.1577,64.38,79,100,1.01,light rain
216,Sault Sainte Marie,CA,2021-12-20 01:44:13,46.5168,-84.3333,28.89,69,90,6.91,overcast clouds
217,San Cristobal,VE,2021-12-20 01:46:24,7.7669,-72.225,69.98,92,80,1.86,broken clouds
218,Mount Hagen,PG,2021-12-20 01:46:24,-5.8581,144.2274,70.56,64,40,11.5,haze
219,Chokurdakh,RU,2021-12-20 01:46:24,70.6333,147.9167,-2.81,97,100,14.25,light snow
220,Xining,CN,2021-12-20 01:46:25,36.6167,101.7667,23.94,36,0,2.1,clear sky
221,Verkh-Usugli,RU,2021-12-20 01:46:25,52.7,115.1667,-7.8,62,9,6.53,clear sky
222,Hibbing,US,2021-12-20 01:46:25,47.4272,-92.9377,22.6,55,90,9.22,overcast clouds
223,Cidreira,BR,2021-12-20 01:46:26,-30.1811,-50.2056,70.65,80,0,24.0,clear sky
224,Torbay,CA,2021-12-20 01:46:26,47.6666,-52.7314,24.28,78,90,6.91,overcast clouds
225,Te Anau,NZ,2021-12-20 01:46:26,-45.4167,167.7167,59.38,96,100,7.02,moderate rain
226,Port Lincoln,AU,2021-12-20 01:46:27,-34.7333,135.8667,69.51,51,21,9.13,few clouds
227,Cap Malheureux,MU,2021-12-20 01:46:27,-19.9842,57.6142,76.46,82,78,6.06,broken clouds
228,Kardymovo,RU,2021-12-20 01:46:27,54.8902,32.4311,18.27,90,100,10.76,overcast clouds
229,Maraa,BR,2021-12-20 01:46:28,-1.8333,-65.3667,74.61,98,100,2.42,moderate rain
230,Gracac,HR,2021-12-20 01:46:28,44.3006,15.8547,37.38,72,0,4.74,clear sky
231,Pisco,PE,2021-12-20 01:46:28,-13.7,-76.2167,67.01,88,0,8.05,clear sky
232,Comodoro Rivadavia,AR,2021-12-20 01:43:46,-45.8667,-67.5,55.26,62,0,13.8,clear sky
233,Svetlogorsk,BY,2021-12-20 01:46:29,52.6333,29.7333,30.88,84,99,11.5,overcast clouds
234,Obo,CF,2021-12-20 01:46:29,5.3998,26.4869,71.29,44,100,4.47,overcast clouds
235,Bundibugyo,UG,2021-12-20 01:46:30,0.7414,30.0417,66.96,86,96,1.72,light rain
236,Taoudenni,ML,2021-12-20 01:46:30,22.6783,-3.9836,74.08,20,100,9.64,overcast clouds
237,Kushtagi,IN,2021-12-20 01:46:31,15.7667,76.2,60.31,75,3,6.8,clear sky
238,Port Hardy,CA,2021-12-20 01:46:31,50.6996,-127.4199,37.4,87,40,5.75,scattered clouds
239,Yulara,AU,2021-12-20 01:46:31,-25.2406,130.9889,87.64,20,0,14.97,clear sky
240,Mar Del Plata,AR,2021-12-20 01:46:32,-38.0023,-57.5575,71.1,94,20,3.0,few clouds
241,Maceio,BR,2021-12-20 01:46:32,-9.6658,-35.7353,80.04,83,75,6.91,broken clouds
242,Peniche,PT,2021-12-20 01:46:32,39.3558,-9.3811,59.88,82,89,19.84,overcast clouds
243,Chato,TZ,2021-12-20 01:46:33,-2.6378,31.7669,65.73,93,100,0.04,moderate rain
244,Katsuura,JP,2021-12-20 01:46:33,35.1333,140.3,46.51,48,0,5.23,clear sky
245,Seymchan,RU,2021-12-20 01:46:33,62.8833,152.4333,-48.35,99,61,0.54,broken clouds
246,Hofn,IS,2021-12-20 01:46:34,64.2539,-15.2082,40.26,72,100,4.34,overcast clouds
247,Ugoofaaru,MV,2021-12-20 01:46:34,5.6667,73.0,82.2,74,51,15.21,broken clouds
248,San Juan De La Maguana,DO,2021-12-20 01:46:35,18.8059,-71.2299,66.33,66,7,1.23,clear sky
249,Faya,SA,2021-12-20 01:46:35,18.3851,42.4509,53.71,90,34,3.24,scattered clouds
250,Suhum,GH,2021-12-20 01:46:35,6.0409,-0.45,79.16,70,56,1.19,broken clouds
251,Lida,BY,2021-12-20 01:46:36,53.8833,25.2997,32.09,89,93,13.98,overcast clouds
252,Katete,UG,2021-12-20 01:46:37,-0.7818,29.7544,61.32,91,100,2.93,light rain
253,Ziniare,BF,2021-12-20 01:46:37,12.5822,-1.2983,69.84,21,19,10.0,few clouds
254,Datong,CN,2021-12-20 01:46:38,40.0936,113.2914,27.27,44,0,4.14,clear sky
255,Aripuana,BR,2021-12-20 01:46:38,-9.1667,-60.6333,74.39,99,100,1.66,overcast clouds
256,Challakere,IN,2021-12-20 01:46:39,14.3167,76.65,62.58,77,5,5.73,clear sky
257,Cabo San Lucas,MX,2021-12-20 01:44:08,22.8909,-109.9124,74.14,75,3,2.77,clear sky
258,Roma,US,2021-12-20 01:46:29,43.2128,-75.4557,26.46,83,1,0.0,clear sky
259,Margate,GB,2021-12-20 01:46:39,51.3813,1.3862,44.69,93,100,4.0,overcast clouds
260,Changji,CN,2021-12-20 01:46:40,44.0167,87.3167,0.39,85,20,6.71,mist
261,Sisimiut,GL,2021-12-20 01:46:40,66.9395,-53.6735,34.97,60,100,23.53,overcast clouds
262,Villamontes,BO,2021-12-20 01:46:40,-21.25,-63.5,73.0,96,100,3.09,overcast clouds
263,Raudeberg,NO,2021-12-20 01:46:41,61.9875,5.1352,38.86,93,92,1.01,overcast clouds
264,Souillac,MU,2021-12-20 01:46:41,-20.5167,57.5167,76.35,83,20,5.75,few clouds
265,Chandausi,IN,2021-12-20 01:46:42,28.45,78.7667,44.71,29,47,5.28,scattered clouds
266,Pareora,NZ,2021-12-20 01:46:42,-44.4871,171.2132,74.17,44,100,9.06,overcast clouds
267,Linfen,CN,2021-12-20 01:46:43,36.0889,111.5189,40.01,35,1,4.9,clear sky
268,Quatre Cocos,MU,2021-12-20 01:46:43,-20.2078,57.7625,76.08,81,67,4.47,broken clouds
269,Cabra,ES,2021-12-20 01:46:43,37.4725,-4.4421,50.4,74,100,5.99,overcast clouds
270,San Policarpo,PH,2021-12-20 01:46:44,12.1791,125.5072,81.68,84,75,9.17,broken clouds
271,Kalmunai,LK,2021-12-20 01:46:44,7.4167,81.8167,75.56,82,43,8.37,scattered clouds
272,Tortoli,IT,2021-12-20 01:46:45,39.9256,9.6572,50.47,49,0,4.07,clear sky
273,Boyolangu,ID,2021-12-20 01:46:45,-8.1181,111.8935,78.76,86,100,3.0,overcast clouds
274,Southbridge,US,2021-12-20 01:46:45,42.0751,-72.0334,27.66,73,6,1.01,clear sky
275,Kachiry,KZ,2021-12-20 01:46:46,53.0675,76.1036,19.92,95,96,10.09,overcast clouds
276,Camacha,PT,2021-12-20 01:46:46,33.0833,-16.3333,65.53,82,40,23.02,scattered clouds
277,Deputatskiy,RU,2021-12-20 01:46:47,69.3,139.9,-27.22,97,100,5.44,overcast clouds
278,Houma,US,2021-12-20 01:45:00,29.5958,-90.7195,50.0,82,100,15.01,overcast clouds
279,Hurghada,EG,2021-12-20 01:46:47,27.2574,33.8129,60.84,33,0,0.0,clear sky
280,Farmington,US,2021-12-20 01:46:47,36.7281,-108.2187,33.19,63,1,5.75,clear sky
281,Marzuq,YE,2021-12-20 01:46:48,14.4,46.4667,59.14,48,61,1.86,broken clouds
282,La Ronge,CA,2021-12-20 01:45:22,55.1001,-105.2842,-9.15,70,90,11.5,light snow
283,Takoradi,GH,2021-12-20 01:46:48,4.8845,-1.7554,79.36,75,84,5.37,broken clouds
284,Sainte-Suzanne,RE,2021-12-20 01:46:48,-20.9061,55.6089,78.12,88,75,3.44,light rain
285,Vila,PT,2021-12-20 01:46:49,42.0304,-8.1588,43.7,73,100,5.57,overcast clouds
286,Kruisfontein,ZA,2021-12-20 01:46:49,-34.0033,24.7314,63.88,93,100,7.99,overcast clouds
287,Fethiye,TR,2021-12-20 01:46:50,36.6217,29.1164,40.87,71,77,5.64,broken clouds
288,Parangan,PH,2021-12-20 01:46:50,5.0839,119.9383,83.12,75,100,11.36,overcast clouds
289,Jishou,CN,2021-12-20 01:46:50,28.3167,109.7167,53.67,54,38,0.69,scattered clouds
290,Ahipara,NZ,2021-12-20 01:46:51,-35.1667,173.1667,70.7,61,38,7.23,scattered clouds
291,Mikkeli,FI,2021-12-20 01:46:51,61.6886,27.2723,14.11,79,75,8.05,light snow
292,Yerbogachen,RU,2021-12-20 01:46:52,61.2767,108.0108,-37.79,99,92,3.69,overcast clouds
293,Saint Anthony,US,2021-12-20 01:46:52,45.0205,-93.218,30.65,73,40,4.0,scattered clouds
294,Kyzyl,RU,2021-12-20 01:46:52,51.7,94.45,8.04,94,100,0.56,overcast clouds
295,San Patricio,US,2021-12-20 01:46:53,28.017,-97.5169,51.66,49,100,9.28,overcast clouds
296,Longhua,CN,2021-12-20 01:46:53,23.6137,114.1919,59.18,41,100,2.73,light rain
297,Vitim,RU,2021-12-20 01:46:54,59.4511,112.5578,-39.1,99,100,2.48,overcast clouds
298,Vuktyl,RU,2021-12-20 01:46:54,63.8567,57.3094,-0.76,80,100,8.79,overcast clouds
299,Aswan,EG,2021-12-20 01:46:54,24.0934,32.907,54.7,47,0,0.0,clear sky
300,Brae,GB,2021-12-20 01:46:55,60.3964,-1.353,39.11,68,100,5.39,overcast clouds
301,Dunedin,NZ,2021-12-20 01:46:26,-45.8742,170.5036,73.98,43,81,20.87,broken clouds
302,Jati,PK,2021-12-20 01:46:55,24.3539,68.2671,59.92,27,9,2.39,clear sky
303,Chimore,BO,2021-12-20 01:46:55,-16.9833,-65.1333,74.12,93,100,2.13,overcast clouds
304,Blairmore,CA,2021-12-20 01:46:56,49.6,-114.4353,15.49,85,100,9.22,overcast clouds
305,Yazd,IR,2021-12-20 01:46:56,31.8972,54.3675,48.31,57,40,4.61,scattered clouds
306,Ojinaga,MX,2021-12-20 01:46:56,29.5667,-104.4167,50.58,76,1,4.61,clear sky
307,Valparaiso,CL,2021-12-20 01:42:14,-33.0393,-71.6273,58.64,88,20,6.91,few clouds
308,Christchurch,NZ,2021-12-20 01:46:57,-43.5333,172.6333,79.0,34,100,11.01,overcast clouds
309,Bambous Virieux,MU,2021-12-20 01:46:58,-20.3428,57.7575,76.21,83,20,5.75,few clouds
310,Castrillon,ES,2021-12-20 01:46:58,43.3979,-6.7922,43.34,80,68,5.23,broken clouds
311,Kattivakkam,IN,2021-12-20 01:46:58,13.2167,80.3167,74.07,88,39,9.51,scattered clouds
312,Adrar,MR,2021-12-20 01:46:59,20.5022,-10.0711,70.41,33,100,12.95,overcast clouds
313,Sinop,TR,2021-12-20 01:46:05,41.7711,34.8709,32.11,92,63,6.91,broken clouds
314,Santa Cruz,BO,2021-12-20 01:46:59,-17.8,-63.1667,78.26,83,75,4.61,broken clouds
315,Naerbo,NO,2021-12-20 01:47:00,58.6667,5.65,34.61,94,2,7.85,clear sky
316,Mbuji-Mayi,CD,2021-12-20 01:47:00,-6.15,23.6,68.65,96,100,0.13,overcast clouds
317,Sabla,NG,2021-12-20 01:47:00,12.7525,4.7077,64.15,24,0,13.65,clear sky
318,Puerto Escondido,MX,2021-12-20 01:47:01,15.85,-97.0667,79.68,78,100,5.37,overcast clouds
319,Atar,MR,2021-12-20 01:47:01,20.5169,-13.0499,74.21,28,100,18.66,overcast clouds
320,Kudahuvadhoo,MV,2021-12-20 01:47:01,2.6708,72.8944,81.54,79,100,14.79,overcast clouds
321,Eyl,SO,2021-12-20 01:47:02,7.9803,49.8164,75.52,81,76,16.62,broken clouds
322,Mandalgovi,MN,2021-12-20 01:47:02,45.7625,106.2708,14.79,63,5,6.4,clear sky
323,Coari,BR,2021-12-20 01:47:02,-4.085,-63.1414,76.03,97,100,2.48,overcast clouds
324,Praia,CV,2021-12-20 01:47:03,14.9215,-23.5087,72.14,83,75,10.36,broken clouds
325,Gornopravdinsk,RU,2021-12-20 01:47:03,60.05,69.9,5.04,94,100,12.39,light snow
326,Kurumkan,RU,2021-12-20 01:47:03,54.3,110.3,-16.83,90,22,4.72,few clouds
327,Tres Lagoas,BR,2021-12-20 01:47:04,-20.7511,-51.6783,72.77,75,0,5.95,clear sky
328,Markivka,UA,2021-12-20 01:47:04,49.5229,39.5705,33.17,98,100,12.64,light snow
329,Nishihara,JP,2021-12-20 01:47:05,26.1842,127.7558,64.06,52,40,4.61,scattered clouds
330,Terrace,CA,2021-12-20 01:47:05,54.5163,-128.6035,14.43,67,75,29.93,broken clouds
331,Kamenskiy,RU,2021-12-20 01:47:06,50.8855,45.488,32.25,97,100,21.18,light snow
332,Umm Kaddadah,SD,2021-12-20 01:47:06,13.6017,26.6876,60.26,27,3,14.72,clear sky
333,Henties Bay,NA,2021-12-20 01:47:06,-22.116,14.2845,61.86,83,72,3.0,broken clouds
334,Beringovskiy,RU,2021-12-20 01:47:07,63.05,179.3167,3.04,88,100,9.6,overcast clouds
335,Chara,RU,2021-12-20 01:47:07,56.9064,118.2631,-28.12,82,88,2.73,overcast clouds
336,Khomutovo,RU,2021-12-20 01:47:08,52.4658,104.4025,2.01,98,37,3.04,scattered clouds
337,Trinidad,BO,2021-12-20 01:47:08,-14.8333,-64.9,72.41,98,100,1.23,overcast clouds
338,Hermiston,US,2021-12-20 01:46:07,45.8404,-119.2895,35.42,92,90,0.0,light snow
339,Birjand,IR,2021-12-20 01:47:09,32.8663,59.2211,43.27,100,0,6.91,clear sky
340,Zhezkazgan,KZ,2021-12-20 01:47:09,47.8043,67.7144,28.38,93,90,2.24,overcast clouds
341,Stanisic,RS,2021-12-20 01:47:09,45.94,19.1653,35.46,72,69,17.83,broken clouds
342,Bairiki,KI,2021-12-20 01:47:10,1.3292,172.9752,86.0,74,40,14.97,scattered clouds
343,Karpathos,GR,2021-12-20 01:47:10,35.507,27.2132,48.16,81,85,28.77,overcast clouds
344,Kimbe,PG,2021-12-20 01:47:11,-5.5502,150.1429,78.73,90,100,1.77,light rain
345,Okato,NZ,2021-12-20 01:47:11,-39.2,173.8833,70.43,69,75,10.6,broken clouds
346,Vestmannaeyjar,IS,2021-12-20 01:47:12,63.4427,-20.2734,45.64,84,100,5.46,overcast clouds
347,Flinders,AU,2021-12-20 01:47:12,-34.5833,150.8552,84.79,70,12,8.48,few clouds
348,Kiunga,PG,2021-12-20 01:47:12,-6.1219,141.2906,86.59,66,100,2.46,overcast clouds
349,Along,IN,2021-12-20 01:47:13,28.1667,94.7667,54.46,43,0,1.28,clear sky
350,Ewa Beach,US,2021-12-20 01:47:13,21.3156,-158.0072,82.35,61,1,15.01,clear sky
351,Waipawa,NZ,2021-12-20 01:47:14,-41.4122,175.5153,64.92,62,37,22.79,scattered clouds
352,Aksu,CN,2021-12-20 01:47:14,41.1231,80.2644,21.07,63,74,3.36,broken clouds
353,Kuruman,ZA,2021-12-20 01:44:22,-27.4524,23.4325,61.99,74,50,11.56,scattered clouds
354,Barcelos,PT,2021-12-20 01:47:15,41.5388,-8.6151,57.34,71,100,8.28,overcast clouds
355,Aranos,NA,2021-12-20 01:47:15,-24.1333,19.1167,71.55,52,38,12.37,scattered clouds
356,Kailua,US,2021-12-20 01:47:15,21.4022,-157.7394,82.38,74,40,14.97,scattered clouds
357,Upernavik,GL,2021-12-20 01:47:16,72.7868,-56.1549,24.12,72,92,9.64,overcast clouds
358,Kabo,CF,2021-12-20 01:47:16,7.6994,18.629,74.55,28,66,4.21,broken clouds
359,Half Moon Bay,US,2021-12-20 01:46:11,37.4636,-122.4286,52.03,83,90,1.01,overcast clouds
360,Imeni Zhelyabova,RU,2021-12-20 01:47:17,58.9544,36.5956,8.67,91,100,12.3,overcast clouds
361,Praia Da Vitoria,PT,2021-12-20 01:47:17,38.7333,-27.0667,56.75,94,20,16.22,few clouds
362,Khilok,RU,2021-12-20 01:47:18,51.3674,110.4676,0.61,85,100,14.61,overcast clouds
363,Lai,TD,2021-12-20 01:47:18,9.3952,16.2989,69.85,31,0,6.46,clear sky
364,Pyu,MM,2021-12-20 01:47:18,18.4833,96.4333,71.94,70,1,2.53,clear sky
365,Los Llanos De Aridane,ES,2021-12-20 01:47:18,28.6585,-17.9182,62.35,86,0,1.01,clear sky
366,Kahama,TZ,2021-12-20 01:47:19,-3.8333,32.6,63.45,97,96,0.76,moderate rain
367,Christiansburg,US,2021-12-20 01:43:07,37.1298,-80.4089,34.0,84,1,5.75,clear sky
368,Pitimbu,BR,2021-12-20 01:47:19,-7.4706,-34.8086,81.19,75,56,9.53,light rain
369,Ferrol,ES,2021-12-20 01:47:20,43.4832,-8.2369,55.67,62,100,8.79,overcast clouds
370,Vetlanda,SE,2021-12-20 01:47:20,57.4289,15.0776,33.55,80,40,10.58,scattered clouds
371,Ambilobe,MG,2021-12-20 01:47:20,-13.2,49.05,76.15,94,84,1.45,light rain
372,Opuwo,NA,2021-12-20 01:47:21,-18.0607,13.84,68.36,38,69,4.59,broken clouds
373,Uttaradit,TH,2021-12-20 01:47:21,17.6667,100.5,65.23,58,33,3.44,scattered clouds
374,Oskarshamn,SE,2021-12-20 01:47:21,57.2645,16.4484,36.81,76,78,17.49,broken clouds
375,Sterling,US,2021-12-20 01:47:22,39.0062,-77.4286,37.33,68,1,7.0,clear sky
376,Redwater,US,2021-12-20 01:47:22,33.3582,-94.2544,39.49,84,5,3.74,clear sky
377,Idil,TR,2021-12-20 01:47:22,37.3411,41.8895,43.45,82,92,7.72,light rain
378,Mecca,SA,2021-12-20 01:47:23,21.4267,39.8261,69.44,72,89,4.5,overcast clouds
379,Tongchuan,CN,2021-12-20 01:47:23,35.0806,109.0897,44.08,23,46,4.47,scattered clouds
380,Muravlenko,RU,2021-12-20 01:47:23,63.7898,74.523,-25.33,85,34,14.29,scattered clouds
381,Cap-Aux-Meules,CA,2021-12-20 01:47:24,47.3821,-61.8597,26.65,68,75,13.8,broken clouds
382,Buala,SB,2021-12-20 01:47:24,-8.145,159.5921,83.26,80,93,7.76,light rain
383,Abu Samrah,SY,2021-12-20 01:47:24,35.3029,37.1841,48.24,63,2,16.51,clear sky
384,Sulangan,PH,2021-12-20 01:47:25,11.1373,123.7228,81.55,77,11,10.02,few clouds
385,Naples,IT,2021-12-20 01:43:16,40.8333,14.25,53.65,88,0,3.44,clear sky
386,Seminole,US,2021-12-20 01:47:25,28.7086,-81.2081,75.47,89,75,8.05,broken clouds
387,Olive Branch,US,2021-12-20 01:44:00,34.9618,-89.8295,36.81,81,1,4.61,clear sky
388,Umm Lajj,SA,2021-12-20 01:47:26,25.0213,37.2685,65.57,55,97,9.57,overcast clouds
389,Shitanjing,CN,2021-12-20 01:47:26,39.2342,106.3439,31.28,21,0,12.53,clear sky
390,Vokhtoga,RU,2021-12-20 01:47:26,58.8147,41.0461,11.75,93,100,11.27,light snow
391,Ishigaki,JP,2021-12-20 01:47:27,24.3448,124.1572,69.93,52,20,13.8,few clouds
392,Kichera,RU,2021-12-20 01:47:27,55.9375,110.0997,-20.6,81,11,7.34,few clouds
393,Kyra,RU,2021-12-20 01:47:27,49.5776,111.9753,9.03,47,2,26.44,clear sky
394,Mikumi,TZ,2021-12-20 01:47:28,-7.4041,36.9831,70.88,91,44,4.99,scattered clouds
395,Yar-Sale,RU,2021-12-20 01:47:28,66.8333,70.8333,-25.67,100,100,9.28,overcast clouds
396,Nchelenge,ZM,2021-12-20 01:47:29,-9.3451,28.734,68.86,87,100,3.27,overcast clouds
397,Hami,CN,2021-12-20 01:47:29,42.8,93.45,23.23,52,0,0.81,clear sky
398,Mabaruma,GY,2021-12-20 01:47:29,8.2,-59.7833,73.33,99,91,3.04,overcast clouds
399,Nizhnyaya Omka,RU,2021-12-20 01:47:30,55.4338,74.9426,5.18,99,90,4.25,overcast clouds
400,Troy,US,2021-12-20 01:44:56,42.6056,-83.1499,30.15,76,75,1.99,broken clouds
401,Chulym,RU,2021-12-20 01:47:30,55.0997,80.9572,17.71,96,100,8.25,light snow
402,Shingu,JP,2021-12-20 01:47:31,33.7333,135.9833,50.99,47,5,5.03,clear sky
403,Povenets,RU,2021-12-20 01:47:31,62.8487,34.8262,0.63,87,29,10.49,scattered clouds
404,Erenhot,CN,2021-12-20 01:47:31,43.6475,111.9767,21.09,57,6,12.55,clear sky
405,Merauke,ID,2021-12-20 01:47:32,-8.4667,140.3333,86.29,61,100,4.61,overcast clouds
406,Caarapo,BR,2021-12-20 01:47:32,-22.6342,-54.8222,74.5,54,9,4.63,clear sky
407,Akyab,MM,2021-12-20 01:47:32,20.15,92.9,67.33,75,1,6.26,clear sky
408,Praya,CV,2021-12-20 01:47:33,14.9215,-23.5087,72.14,83,75,10.36,broken clouds
409,Batemans Bay,AU,2021-12-20 01:47:33,-35.7167,150.1833,85.98,56,5,10.65,clear sky
410,Ndele,CF,2021-12-20 01:47:34,8.4109,20.6473,70.72,33,2,4.85,clear sky
411,Bad Frankenhausen,DE,2021-12-20 01:47:34,51.35,11.1,38.08,90,12,1.01,few clouds
412,Byron Bay,AU,2021-12-20 01:47:34,-28.65,153.6167,91.06,57,100,9.01,overcast clouds
413,Mahina,PF,2021-12-20 01:47:35,-17.5065,-149.489,83.97,65,40,4.61,light rain
414,Chiautla,MX,2021-12-20 01:47:35,19.5333,-98.8833,67.77,65,99,5.21,overcast clouds
415,Oktyabrskiy,RU,2021-12-20 01:47:36,54.4815,53.471,22.73,93,98,15.55,light snow
416,Kochevo,RU,2021-12-20 01:47:36,59.5994,54.3125,1.33,99,95,4.61,overcast clouds
417,Yellandu,IN,2021-12-20 01:47:36,17.6,80.3333,59.9,67,0,3.4,clear sky
418,Sovetskaya Gavan,RU,2021-12-20 01:47:37,48.9723,140.2878,9.54,67,100,2.71,overcast clouds
419,Korla,CN,2021-12-20 01:47:37,41.7597,86.1469,20.71,60,33,1.63,scattered clouds
420,Dingle,PH,2021-12-20 01:47:37,10.9995,122.6711,83.53,75,36,10.22,scattered clouds
421,Sitio Novo Do Tocantins,BR,2021-12-20 01:47:38,-5.5183,-47.4611,74.41,95,100,3.2,overcast clouds
422,Malinyi,TZ,2021-12-20 01:47:38,-8.9333,36.1333,71.49,87,39,1.77,scattered clouds
423,Butembo,CD,2021-12-20 01:47:39,0.15,29.2833,56.88,95,100,2.66,light rain
424,Presidente Epitacio,BR,2021-12-20 01:47:39,-21.7633,-52.1156,72.41,69,0,4.21,clear sky
425,Turukhansk,RU,2021-12-20 01:47:39,65.8167,87.9833,-35.54,95,6,3.22,clear sky
426,Baykit,RU,2021-12-20 01:47:40,61.67,96.37,-32.87,98,17,1.95,few clouds
427,Malanville,BJ,2021-12-20 01:47:40,11.8685,3.3899,64.56,27,0,8.05,clear sky
428,Inyonga,TZ,2021-12-20 01:47:41,-6.7167,32.0667,61.99,97,81,1.66,light rain
429,Troitsko-Pechorsk,RU,2021-12-20 01:47:41,62.7084,56.1964,-4.99,95,100,9.98,overcast clouds
430,Geraldton,AU,2021-12-20 01:43:01,-28.7667,114.6,79.21,41,5,10.36,clear sky
431,Isla Vista,US,2021-12-20 01:47:41,34.4133,-119.861,56.68,77,40,4.61,scattered clouds
432,Villa Bruzual,VE,2021-12-20 01:47:42,9.3328,-69.1208,77.85,61,61,7.9,broken clouds
433,Tripoli,LY,2021-12-20 01:44:46,32.8752,13.1875,55.74,61,1,9.13,clear sky
434,Coquimbo,CL,2021-12-20 01:47:42,-29.9533,-71.3436,60.53,88,90,6.91,overcast clouds
435,Naryan-Mar,RU,2021-12-20 01:47:43,67.6713,53.087,-7.29,92,99,9.46,overcast clouds
436,Santa Isabel Do Rio Negro,BR,2021-12-20 01:47:43,-0.4139,-65.0192,74.88,97,100,1.54,overcast clouds
437,Presidencia Roque Saenz Pena,AR,2021-12-20 01:47:44,-26.7852,-60.4388,87.21,42,60,6.91,broken clouds
438,Mana,GF,2021-12-20 01:47:44,5.6592,-53.7767,77.43,90,96,6.93,overcast clouds
439,Marsabit,KE,2021-12-20 01:47:44,2.3284,37.9899,64.85,86,86,9.46,overcast clouds
440,Ostrovnoy,RU,2021-12-20 01:47:45,68.0531,39.5131,20.21,84,100,18.05,light snow
441,Conakry,GN,2021-12-20 01:45:30,9.538,-13.6773,73.36,71,0,8.19,clear sky
442,Kommunisticheskiy,RU,2021-12-20 01:47:45,61.6789,64.4819,0.97,96,100,9.22,light snow
443,Adre,TD,2021-12-20 01:47:46,13.4667,22.2,62.19,29,0,12.77,clear sky
444,Sao Filipe,CV,2021-12-20 01:47:46,14.8961,-24.4956,72.79,80,100,9.55,overcast clouds
445,Mehran,IR,2021-12-20 01:47:46,33.1222,46.1646,51.28,59,100,6.35,overcast clouds
446,Fortuna,US,2021-12-20 01:47:47,40.5982,-124.1573,55.74,84,75,1.01,broken clouds
447,Longyearbyen,SJ,2021-12-20 01:47:47,78.2186,15.6401,24.64,80,75,10.36,broken clouds
448,Jaisalmer,IN,2021-12-20 01:47:48,26.9147,70.9181,57.34,13,0,4.43,clear sky
449,Klaipeda,LT,2021-12-20 01:47:46,55.7172,21.1175,32.05,77,80,21.63,broken clouds
450,Sioux Lookout,CA,2021-12-20 01:47:48,50.1001,-91.917,19.78,79,90,13.8,light snow
451,Dehui,CN,2021-12-20 01:47:49,44.5333,125.7,28.71,73,3,12.41,clear sky
452,Egvekinot,RU,2021-12-20 01:47:49,66.3167,-179.1667,-10.73,99,50,2.95,scattered clouds
453,Vao,NC,2021-12-20 01:47:49,-22.6667,167.4833,77.27,85,85,13.67,overcast clouds
454,Lamu,KE,2021-12-20 01:47:50,-2.2717,40.902,79.02,86,55,9.1,light rain
455,Zyryanka,RU,2021-12-20 01:47:50,65.75,150.85,-42.27,97,78,9.6,broken clouds
456,Aguas Formosas,BR,2021-12-20 01:47:50,-17.0822,-40.9358,69.98,99,100,4.07,overcast clouds
457,Paamiut,GL,2021-12-20 01:47:51,61.994,-49.6678,44.51,47,100,23.26,overcast clouds
458,Tessalit,ML,2021-12-20 01:47:51,20.1986,1.0114,64.11,22,70,10.25,broken clouds
459,Sambava,MG,2021-12-20 01:47:51,-14.2667,50.1667,73.98,93,70,3.71,broken clouds
460,Cuauhtemoc,MX,2021-12-20 01:47:51,28.4167,-106.8667,40.73,71,4,2.19,clear sky
461,Key Largo,US,2021-12-20 01:47:47,25.0865,-80.4473,75.97,79,3,7.47,clear sky
462,Hay River,CA,2021-12-20 01:47:52,60.8156,-115.7999,-4.04,84,90,3.44,light snow
463,Silkeborg,DK,2021-12-20 01:47:52,56.1697,9.5451,37.74,79,0,9.01,clear sky
464,Spasskoye,RU,2021-12-20 01:47:53,44.6108,132.7969,19.31,81,100,9.82,overcast clouds
465,Portland,US,2021-12-20 01:46:55,45.5234,-122.6762,41.9,95,90,3.0,moderate rain
466,Lompoc,US,2021-12-20 01:47:53,34.6391,-120.4579,53.56,82,20,3.0,few clouds
467,Narsaq,GL,2021-12-20 01:47:54,60.9167,-46.05,38.35,54,100,17.94,overcast clouds
468,Port Keats,AU,2021-12-20 01:47:54,-14.25,129.55,88.75,62,100,9.04,overcast clouds
469,Zarubino,RU,2021-12-20 01:47:54,42.63,131.0922,27.97,60,100,4.79,overcast clouds
470,Santa Fe,AR,2021-12-20 01:44:50,-31.6333,-60.7,84.02,55,22,3.0,light rain
471,Sazonovo,RU,2021-12-20 01:47:55,59.0919,35.2268,9.59,90,100,11.07,overcast clouds
472,Kungurtug,RU,2021-12-20 01:47:55,50.5994,97.5228,10.15,92,100,1.54,overcast clouds
473,La Libertad,EC,2021-12-20 01:47:56,-2.2333,-80.9,71.46,91,100,5.95,light rain
474,Kapit,MY,2021-12-20 01:47:56,2.0167,112.9333,74.3,94,100,1.34,overcast clouds
475,Halifax,CA,2021-12-20 01:47:41,44.6453,-63.5724,28.42,90,19,3.0,few clouds
476,Filadelfia,US,2021-12-20 01:44:05,39.9523,-75.1638,33.21,62,1,4.0,clear sky
477,Kundla,IN,2021-12-20 01:47:57,21.3333,71.3,59.34,25,88,7.0,overcast clouds
478,Galesong,ID,2021-12-20 01:47:57,-5.3166,119.3661,82.42,74,100,5.84,overcast clouds
479,Sao Sebastiao,BR,2021-12-20 01:47:57,-23.76,-45.4097,70.38,86,69,4.94,broken clouds
480,Chistogorskiy,RU,2021-12-20 01:47:58,53.9835,87.3843,22.28,97,100,5.03,snow
481,Thinadhoo,MV,2021-12-20 01:47:58,0.5333,72.9333,80.6,76,99,5.44,overcast clouds
482,Quimper,FR,2021-12-20 01:45:17,48.0,-4.1,41.83,93,90,4.61,overcast clouds
483,Khani,GE,2021-12-20 01:47:59,41.9563,42.9566,40.57,69,100,6.26,overcast clouds
484,Teguldet,RU,2021-12-20 01:47:59,57.3064,88.1667,-8.54,90,100,8.9,overcast clouds
485,Kovdor,RU,2021-12-20 01:47:59,67.5662,30.4758,5.16,98,99,4.07,overcast clouds
486,Vryburg,ZA,2021-12-20 01:48:00,-26.9566,24.7284,61.27,79,98,8.37,overcast clouds
487,Omaruru,NA,2021-12-20 01:48:00,-21.4333,15.9333,67.08,35,64,3.22,broken clouds
488,Senno,RU,2021-12-20 01:48:01,59.5336,33.9167,13.26,89,100,10.38,overcast clouds
489,Sayat,TM,2021-12-20 01:48:01,38.7839,63.8803,42.67,31,0,10.13,clear sky
490,Haines Junction,CA,2021-12-20 01:48:01,60.7522,-137.5108,-18.45,76,99,1.14,overcast clouds
491,Belyy Yar,RU,2021-12-20 01:48:02,53.6039,91.3903,15.85,87,75,2.24,broken clouds
492,Leningradskiy,RU,2021-12-20 01:48:02,69.3833,178.4167,0.32,88,100,7.83,overcast clouds
493,Dongsheng,CN,2021-12-20 01:48:03,39.8161,109.9776,25.41,38,0,12.95,clear sky
494,Jiuquan,CN,2021-12-20 01:48:03,39.7432,98.5174,25.77,20,0,1.86,clear sky
495,Atasu,KZ,2021-12-20 01:48:03,48.6814,71.6433,27.48,97,100,8.84,overcast clouds
496,Sorong,ID,2021-12-20 01:48:04,-0.8833,131.25,81.23,80,100,1.07,overcast clouds
497,Grindavik,IS,2021-12-20 01:48:04,63.8424,-22.4338,43.27,100,90,6.91,mist
498,Santa Quiteria,BR,2021-12-20 01:48:04,-4.3319,-40.1567,79.92,65,93,5.28,overcast clouds
499,Carmo Do Paranaiba,BR,2021-12-20 01:48:05,-19.0008,-46.3161,65.75,93,9,6.73,clear sky
500,Venice,US,2021-12-20 01:48:05,27.0998,-82.4543,75.15,97,40,0.0,mist
501,Kidal,ML,2021-12-20 01:48:05,18.4411,1.4078,63.43,22,72,12.84,broken clouds
502,Gisborne,NZ,2021-12-20 01:43:49,-38.6533,178.0042,82.58,31,0,12.86,clear sky
503,Neiafu,TO,2021-12-20 01:48:06,-18.65,-173.9833,86.68,74,40,12.66,scattered clouds
504,Nizhniy Kuranakh,RU,2021-12-20 01:48:06,58.8353,125.4869,-25.08,93,100,5.12,overcast clouds
505,Manoel Urbano,BR,2021-12-20 01:48:07,-8.8389,-69.2597,74.62,98,100,2.68,overcast clouds
506,Basco,PH,2021-12-20 01:48:07,20.4487,121.9702,73.96,78,100,25.41,overcast clouds
507,Sinnamary,GF,2021-12-20 01:48:08,5.3833,-52.95,78.15,87,99,6.93,overcast clouds
508,Whitehorse,CA,2021-12-20 01:48:08,60.7161,-135.0538,-3.98,74,20,5.99,few clouds
509,Rawlins,US,2021-12-20 01:48:08,41.7911,-107.2387,35.82,43,1,14.97,clear sky
510,Morondava,MG,2021-12-20 01:48:09,-20.2833,44.2833,77.61,74,61,3.49,broken clouds
511,At-Bashi,KG,2021-12-20 01:48:09,41.1702,75.8106,14.83,68,92,1.48,overcast clouds
512,Lakatoro,VU,2021-12-20 01:48:09,-16.0999,167.4164,84.22,70,93,8.55,overcast clouds
513,Korgen,NO,2021-12-20 01:48:10,66.0771,13.8153,38.26,98,71,3.6,broken clouds
514,Panjab,AF,2021-12-20 01:48:10,34.388,67.0233,27.43,97,95,2.86,light snow
515,Flin Flon,CA,2021-12-20 01:48:11,54.7682,-101.865,2.41,93,100,10.25,overcast clouds
516,Ucluelet,CA,2021-12-20 01:48:11,48.9329,-125.5528,40.08,85,28,7.72,scattered clouds
517,Popondetta,PG,2021-12-20 01:48:12,-8.7537,148.2534,89.24,59,17,4.5,few clouds
518,Vannes,FR,2021-12-20 01:48:12,47.8333,-2.5,42.28,94,0,10.63,clear sky
519,Dolna Banjica,MK,2021-12-20 01:48:13,41.7861,20.9061,21.25,83,3,4.63,clear sky
520,Birao,CF,2021-12-20 01:48:13,10.2849,22.7882,66.56,30,0,6.51,clear sky
521,Kerema,PG,2021-12-20 01:48:13,-7.9631,145.7785,84.18,69,100,7.11,overcast clouds
522,Cuiaba,BR,2021-12-20 01:44:19,-15.5961,-56.0967,80.53,89,75,4.61,broken clouds
523,Zheleznodorozhnyy,RU,2021-12-20 01:48:14,55.7503,38.0042,23.22,95,100,11.81,light snow
524,Moyale,KE,2021-12-20 01:48:14,3.5167,39.0584,67.28,68,99,5.17,overcast clouds
525,Sarahan,IN,2021-12-20 01:48:14,31.5167,77.8,27.61,27,5,13.51,clear sky
526,Ismailia,EG,2021-12-20 01:48:15,30.6043,32.2723,46.06,82,98,18.12,overcast clouds
527,Ossora,RU,2021-12-20 01:48:15,59.2353,163.0719,-4.04,84,61,3.98,broken clouds
528,Felipe Carrillo Puerto,MX,2021-12-20 01:48:16,19.5833,-88.05,72.09,98,15,2.73,few clouds
529,Bandarbeyla,SO,2021-12-20 01:48:16,9.4942,50.8122,77.0,77,43,13.58,scattered clouds
530,Sao Joao Da Barra,BR,2021-12-20 01:44:10,-21.6403,-41.0511,72.91,83,100,9.33,overcast clouds
531,Vawkavysk,BY,2021-12-20 01:48:16,53.1561,24.4513,31.64,98,96,9.28,snow
532,Sebastian,US,2021-12-20 01:48:17,35.1668,-94.2669,36.16,68,64,2.98,broken clouds
533,Boddam,GB,2021-12-20 01:48:17,57.4667,-1.7833,39.58,72,18,5.93,few clouds
534,Mushie,CD,2021-12-20 01:48:17,-3.0167,16.9,75.56,83,99,0.56,overcast clouds
535,Ust-Ishim,RU,2021-12-20 01:48:18,57.6935,71.1665,10.33,94,100,8.75,overcast clouds
536,Kholtoson,RU,2021-12-20 01:48:18,50.2981,103.3097,-0.02,93,14,1.32,few clouds
537,Tautira,PF,2021-12-20 01:48:18,-17.7333,-149.15,84.22,74,44,13.44,light rain
538,Bonavista,CA,2021-12-20 01:48:19,48.6499,-53.1147,25.12,77,100,16.37,overcast clouds
539,Iki-Burul,RU,2021-12-20 01:48:19,45.8208,44.6472,32.4,82,61,10.85,light snow
540,Olafsvik,IS,2021-12-20 01:48:20,64.8945,-23.7142,41.38,78,100,2.1,overcast clouds
541,Areosa,PT,2021-12-20 01:48:20,41.7178,-8.8571,57.76,70,100,11.86,overcast clouds
542,Ilebo,CD,2021-12-20 01:48:21,-4.3167,20.5833,71.74,99,100,1.72,light rain
543,Mae Hong Son,TH,2021-12-20 01:48:21,19.3003,97.9685,62.74,94,20,0.0,few clouds
544,La Palma,US,2021-12-20 01:48:22,33.8464,-118.0467,61.99,79,1,3.44,clear sky
545,Mizque,BO,2021-12-20 01:48:22,-17.941,-65.3402,61.88,83,100,0.27,overcast clouds
546,Pekan,MY,2021-12-20 01:48:22,3.4836,103.3996,75.31,78,99,4.41,overcast clouds
547,Beloha,MG,2021-12-20 01:48:23,-25.1667,45.05,65.16,77,96,10.0,overcast clouds
548,Akdepe,TM,2021-12-20 01:48:23,42.0551,59.3788,41.0,84,100,7.67,overcast clouds
549,Gizo,SB,2021-12-20 01:48:23,-8.103,156.8419,84.2,73,68,4.76,light rain
550,Elizabeth City,US,2021-12-20 01:48:24,36.2946,-76.2511,44.62,90,90,19.57,overcast clouds
551,Riviere-Au-Renard,CA,2021-12-20 01:48:24,48.9957,-64.3971,23.29,86,100,9.84,light snow
552,Bandarban,BD,2021-12-20 01:48:25,22.1965,92.2262,61.27,70,0,1.81,clear sky
553,Guadalupe Y Calvo,MX,2021-12-20 01:48:25,26.1,-106.9667,36.09,75,0,3.0,clear sky
554,Saint-Ambroise,CA,2021-12-20 01:48:26,48.5501,-71.3324,12.88,67,21,10.36,few clouds
555,Mahajanga,MG,2021-12-20 01:48:26,-15.7167,46.3167,82.42,78,40,5.75,scattered clouds
556,Meulaboh,ID,2021-12-20 01:48:26,4.1363,96.1285,76.32,87,100,3.4,heavy intensity rain
557,Mirnyy,RU,2021-12-20 01:48:27,62.5353,113.9611,-34.71,96,98,6.33,overcast clouds
558,Muros,ES,2021-12-20 01:48:27,42.7762,-9.0603,55.9,89,100,9.51,overcast clouds
559,Dandong,CN,2021-12-20 01:48:27,40.1292,124.3947,36.84,69,6,4.54,clear sky
560,Marawi,PH,2021-12-20 01:48:28,7.9986,124.2928,74.64,68,34,3.42,scattered clouds
561,Novaky,SK,2021-12-20 01:48:28,48.7111,18.5339,38.91,88,11,6.49,few clouds
562,Outjo,NA,2021-12-20 01:48:28,-20.1167,16.15,67.24,38,34,3.36,scattered clouds
563,Amurzet,RU,2021-12-20 01:48:29,47.6967,131.0981,3.0,95,100,2.73,overcast clouds
564,Gua Musang,MY,2021-12-20 01:48:29,4.8823,101.9644,75.16,92,100,1.72,overcast clouds
565,Le Port,RE,2021-12-20 01:48:30,-20.9373,55.2919,77.9,97,14,7.9,light rain
566,Kanniyakumari,IN,2021-12-20 01:48:30,8.0833,77.5667,75.69,73,22,20.29,few clouds
567,Richards Bay,ZA,2021-12-20 01:48:30,-28.783,32.0377,68.23,78,100,5.35,overcast clouds
568,Uvira,CD,2021-12-20 01:48:31,-3.4067,29.1458,72.82,84,100,2.39,overcast clouds
569,Arkhangelskoye,RU,2021-12-20 01:48:31,55.8549,35.3287,16.9,92,100,12.44,overcast clouds
570,Tarusa,RU,2021-12-20 01:48:32,54.7233,37.1767,25.36,92,100,11.83,overcast clouds
571,Vestmanna,FO,2021-12-20 01:48:32,62.1564,-7.1664,38.32,100,90,4.61,overcast clouds
572,Orlik,RU,2021-12-20 01:48:33,52.5178,99.825,-6.38,97,87,1.57,overcast clouds
573,Pangody,RU,2021-12-20 01:48:33,65.85,74.4859,-29.36,86,65,10.38,broken clouds
574,Asau,RO,2021-12-20 01:48:33,46.4333,26.4,38.32,89,70,3.0,broken clouds
575,Sumbe,AO,2021-12-20 01:48:33,-11.2061,13.8437,75.61,85,90,5.26,overcast clouds
576,Bograd,RU,2021-12-20 01:48:34,54.2344,90.8328,13.91,92,100,2.84,overcast clouds
577,Angoche,MZ,2021-12-20 01:48:34,-16.2325,39.9086,76.26,90,60,4.72,light rain
578,Kurchatov,RU,2021-12-20 01:48:35,51.6601,35.6521,32.41,87,100,10.94,overcast clouds
579,Kitimat,CA,2021-12-20 01:48:35,54.0524,-128.6534,14.92,75,100,4.09,overcast clouds
580,Andros Town,BS,2021-12-20 01:48:36,24.7,-77.7667,76.96,75,8,8.1,clear sky
581,Vydrino,RU,2021-12-20 01:48:36,51.485,104.8461,10.83,85,100,7.63,light snow
582,Zonguldak,TR,2021-12-20 01:48:36,41.25,31.8333,34.12,91,91,3.51,overcast clouds
583,Santa Catarina De Tepehuanes,MX,2021-12-20 01:48:37,25.35,-105.7333,44.06,77,1,2.82,clear sky
584,Port Macquarie,AU,2021-12-20 01:48:37,-31.4333,152.9167,88.9,58,46,9.35,scattered clouds
585,Cockburn Town,TC,2021-12-20 01:48:37,21.4612,-71.1419,79.2,78,17,18.25,few clouds
586,Bontang,ID,2021-12-20 01:48:38,0.1333,117.5,82.0,74,100,5.91,light rain
587,Hoi An,VN,2021-12-20 01:48:38,15.8794,108.335,75.16,85,100,12.24,overcast clouds
588,Xifeng,CN,2021-12-20 01:48:38,42.7372,124.7222,29.79,72,20,14.27,few clouds
589,Port Hedland,AU,2021-12-20 01:48:39,-20.3167,118.5667,93.25,62,15,26.46,few clouds
590,Balabac,PH,2021-12-20 01:48:39,7.9868,117.0645,82.92,75,100,5.35,overcast clouds
591,Carbondale,US,2021-12-20 01:47:13,37.7273,-89.2168,34.75,88,1,0.0,clear sky
592,Ormara,PK,2021-12-20 01:48:40,25.2088,64.6357,69.03,75,94,6.89,overcast clouds
593,Lujiang,CN,2021-12-20 01:48:40,31.2581,117.2817,51.85,37,10,8.1,clear sky
594,Praxedis Guerrero,MX,2021-12-20 01:48:41,31.3667,-106.0167,51.39,48,2,4.21,clear sky
595,Srednekolymsk,RU,2021-12-20 01:48:41,67.45,153.6833,-31.54,96,100,22.01,overcast clouds
596,Calatayud,ES,2021-12-20 01:48:41,41.3535,-1.6432,43.38,82,4,4.27,clear sky
597,Tilichiki,RU,2021-12-20 01:48:42,60.4667,166.1,-17.66,97,51,5.82,broken clouds
598,Petropavlovsk-Kamchatskiy,RU,2021-12-20 01:48:42,53.0452,158.6483,16.39,86,90,8.95,light shower snow
599,Trabzon,TR,2021-12-20 01:46:37,40.9167,39.8333,44.69,76,75,5.75,broken clouds
600,Soyo,AO,2021-12-20 01:48:42,-6.1349,12.3689,77.38,90,76,8.61,broken clouds
601,Swan River,CA,2021-12-20 01:48:43,52.1058,-101.2676,3.09,72,81,16.11,broken clouds
602,Norton,ZW,2021-12-20 01:48:43,-17.8833,30.7,61.56,93,100,4.54,light rain
603,Chimbote,PE,2021-12-20 01:48:01,-9.0853,-78.5783,67.1,84,100,6.85,overcast clouds
604,Laguna,US,2021-12-20 01:48:43,38.421,-121.4238,47.21,85,90,0.0,overcast clouds
605,Krasnyy Chikoy,RU,2021-12-20 01:48:44,50.3643,108.7512,4.87,82,67,11.27,broken clouds
606,Sturgis,US,2021-12-20 01:45:30,41.7992,-85.4192,31.71,49,90,6.91,overcast clouds
607,Rincon,US,2021-12-20 01:48:44,32.296,-81.2354,63.86,88,90,20.71,overcast clouds
608,Trairi,BR,2021-12-20 01:47:50,-3.2778,-39.2689,79.92,76,95,10.29,overcast clouds
609,Corum,TR,2021-12-20 01:48:45,40.5,34.75,31.12,98,100,3.44,overcast clouds
610,Zhob,PK,2021-12-20 01:48:45,31.3411,69.4481,47.43,25,66,4.74,broken clouds
611,Tjome,NO,2021-12-20 01:48:46,59.1109,10.3933,38.14,49,0,13.8,clear sky
612,Hamilton,US,2021-12-20 01:48:46,39.1834,-84.5333,35.42,79,90,1.01,overcast clouds
613,Kota Bahru,MY,2021-12-20 01:48:46,6.1333,102.2386,77.0,83,20,5.01,few clouds
614,Urucara,BR,2021-12-20 01:48:47,-2.5364,-57.76,75.78,94,100,1.48,overcast clouds
615,Suzun,RU,2021-12-20 01:48:47,53.7841,82.3116,29.16,98,100,7.67,light snow
616,Leh,IN,2021-12-20 01:48:48,34.1667,77.5833,-1.37,39,0,3.18,clear sky
617,Belfort,FR,2021-12-20 01:44:57,47.6333,6.8667,33.57,95,18,5.84,few clouds
618,San Carlos De Bariloche,AR,2021-12-20 01:48:48,-41.1456,-71.3082,64.15,52,0,8.05,clear sky
619,Papara,BR,2021-12-20 01:48:48,-3.9839,-38.7273,81.0,86,59,3.36,broken clouds
620,Shillong,IN,2021-12-20 01:48:49,25.5689,91.8831,38.43,61,0,2.24,clear sky
621,Pankovka,RU,2021-12-20 01:48:49,58.5,31.1999,15.85,88,100,13.22,overcast clouds
622,Coihaique,CL,2021-12-20 01:46:23,-45.5752,-72.0662,63.21,55,0,3.44,clear sky
623,Sept-Iles,CA,2021-12-20 01:45:06,50.2001,-66.3821,13.05,73,75,4.0,broken clouds
624,Aktau,KZ,2021-12-20 01:48:50,43.65,51.2,37.98,88,66,11.01,broken clouds
625,Malanje,AO,2021-12-20 01:48:50,-9.5402,16.341,63.77,98,100,3.58,overcast clouds
626,Barcelona,ES,2021-12-20 01:48:22,41.3888,2.159,50.72,71,20,1.99,few clouds
627,Port Blair,IN,2021-12-20 01:48:51,11.6667,92.75,80.98,72,59,6.85,broken clouds
628,Lima,PE,2021-12-20 01:48:51,-12.0432,-77.0282,66.9,80,90,9.22,overcast clouds
629,Nouakchott,MR,2021-12-20 01:48:47,18.0858,-15.9785,69.73,48,100,13.4,overcast clouds
630,Colombia,CU,2021-12-20 01:44:01,20.9881,-77.4297,74.12,91,0,5.19,clear sky
631,Fort Nelson,CA,2021-12-20 01:46:31,58.8053,-122.7002,6.44,96,100,1.16,light snow
632,Palmer,US,2021-12-20 01:48:52,42.1584,-72.3287,28.08,65,1,5.01,clear sky
633,Nikitinskiy,RU,2021-12-20 01:48:52,54.5845,86.0115,24.21,96,100,5.32,light snow
634,Kremenki,RU,2021-12-20 01:48:53,54.885,37.1261,25.7,92,100,10.89,overcast clouds
635,Lardos,GR,2021-12-20 01:48:53,36.0942,28.0157,51.94,71,60,12.68,broken clouds
636,Erzin,TR,2021-12-20 01:48:53,36.9559,36.2,48.92,95,100,5.91,light rain
637,Muzhi,RU,2021-12-20 01:48:54,65.3667,64.6667,-16.2,95,100,14.32,overcast clouds
638,Chacabuco,AR,2021-12-20 01:47:08,-34.6417,-60.4739,79.81,42,0,8.95,clear sky
639,Deniliquin,AU,2021-12-20 01:48:54,-35.5333,144.9667,73.0,21,5,7.83,clear sky
640,Auki,SB,2021-12-20 01:48:54,-8.7676,160.7034,83.46,81,71,5.19,broken clouds
641,Shenzhen,CN,2021-12-20 01:48:55,22.5455,114.0683,64.27,85,100,8.88,overcast clouds
642,Puerto Baquerizo Moreno,EC,2021-12-20 01:48:55,-0.9,-89.6,69.78,92,76,8.55,broken clouds
643,Niamey,NE,2021-12-20 01:48:55,13.5137,2.1098,70.09,19,2,6.91,clear sky
644,Batagay-Alyta,RU,2021-12-20 01:48:56,67.8006,130.4114,-27.29,99,100,2.01,overcast clouds
645,Divnomorskoye,RU,2021-12-20 01:48:56,44.5011,38.1353,45.01,82,100,13.51,overcast clouds
646,Kendal,GB,2021-12-20 01:48:56,54.3268,-2.7476,42.1,93,45,4.0,scattered clouds
647,Gdansk,PL,2021-12-20 01:48:57,54.3521,18.6464,37.58,91,75,12.66,broken clouds
648,Sur,OM,2021-12-20 01:48:57,22.5667,59.5289,67.84,67,35,4.14,scattered clouds
649,Salihorsk,BY,2021-12-20 01:48:58,52.7876,27.5415,30.61,91,78,12.21,broken clouds
650,Tabou,CI,2021-12-20 01:48:58,4.423,-7.3528,79.61,83,71,8.48,light rain
651,Champerico,GT,2021-12-20 01:48:58,14.3,-91.9167,82.04,78,1,8.55,clear sky
652,Owerri,NG,2021-12-20 01:48:59,5.4833,7.0304,73.78,40,0,0.94,clear sky
653,Cervo,ES,2021-12-20 01:48:59,43.6702,-7.4101,49.95,70,62,6.93,broken clouds
654,Farafangana,MG,2021-12-20 01:44:07,-22.8167,47.8333,69.98,84,100,7.2,light rain
655,Paracelis,PH,2021-12-20 01:48:59,17.2667,121.4667,70.84,100,100,2.68,overcast clouds
656,Presidente Medici,BR,2021-12-20 01:49:00,-11.1753,-61.9014,73.65,97,100,2.75,overcast clouds
657,Hays,US,2021-12-20 01:49:00,30.0502,-98.0336,49.03,71,98,1.01,overcast clouds
658,Bonwapitse,BW,2021-12-20 01:49:00,-23.0766,26.7037,58.1,93,82,8.03,broken clouds
659,Pleasanton,US,2021-12-20 01:49:01,37.6624,-121.8747,50.63,87,90,1.01,mist
660,West Wendover,US,2021-12-20 01:49:01,40.7391,-114.0733,25.81,68,90,0.0,overcast clouds
661,Samarai,PG,2021-12-20 01:49:01,-10.6167,150.6667,83.61,71,100,8.14,overcast clouds
662,Porto Santo,PT,2021-12-20 01:49:02,33.072,-16.3415,68.31,82,40,23.02,scattered clouds
663,Russkaya Polyana,UA,2021-12-20 01:49:02,49.417,31.9201,31.8,92,100,10.47,overcast clouds
664,Polonnaruwa,LK,2021-12-20 01:49:02,7.9333,81.0,73.65,83,25,2.33,scattered clouds
665,North Bend,US,2021-12-20 01:49:03,43.4065,-124.2243,54.07,100,90,6.91,mist
666,Banikoara,BJ,2021-12-20 01:49:03,11.2985,2.4386,67.35,25,0,7.2,clear sky
667,Scarborough,GB,2021-12-20 01:45:22,54.2797,-0.4044,43.54,93,100,1.99,overcast clouds
668,Kieta,PG,2021-12-20 01:49:04,-6.2167,155.6333,83.41,81,100,5.59,moderate rain
669,Beya,RU,2021-12-20 01:49:04,53.0533,90.9139,18.34,92,100,0.98,overcast clouds
670,Kutum,SD,2021-12-20 01:49:05,14.2,24.6667,56.01,32,0,6.82,clear sky
671,Zlitan,LY,2021-12-20 01:49:05,32.4674,14.5687,53.91,68,34,12.86,scattered clouds
672,Colesberg,ZA,2021-12-20 01:49:05,-30.72,25.0972,58.75,81,100,5.28,overcast clouds
673,Shelburne,CA,2021-12-20 01:49:06,44.0787,-80.2041,18.05,87,18,3.85,few clouds
674,Hirara,JP,2021-12-20 01:49:06,24.8,125.2833,67.86,59,20,5.75,few clouds
675,Itarema,BR,2021-12-20 01:49:06,-2.9248,-39.9167,80.15,75,100,12.53,overcast clouds
676,Bukama,CD,2021-12-20 01:49:07,-9.2,25.85,68.2,96,100,0.27,overcast clouds
677,Belmonte,BR,2021-12-20 01:49:07,-15.8631,-38.8828,77.5,89,100,3.74,overcast clouds
678,Mbuguni,TZ,2021-12-20 01:49:07,-3.5667,36.95,73.02,91,58,3.71,light rain
679,Roebourne,AU,2021-12-20 01:49:08,-20.7833,117.1333,92.86,51,7,23.06,clear sky
